[
  {
    "name": "Jackson Heights NFL YET Center",
    "lat": 27.978409801474598,
    "lng": -82.42310569154508,
    "indoor": true,
    "fullCourts": 1,
    "halfCourts": 0,
    "lighting": true,
    "hours": "Unknown – 9 PM",
    "quality": 8,
    "popularity": 7,
    "rim": "Single",
    "net": "Nylon",
    "shortHoop": false,
    "accessibility": "Somewhat Accessible.",
    "description": "Well-kept, usually open courts after 6:00pm.",
    "inactive":false
  },
  {
    "name": "Beta Courts at USF",
    "lat": 28.06432,
    "lng": -82.40942,
    "indoor": false,
    "fullCourts": 2,
    "halfCourts": 0,
    "lighting": true,
    "hours": "9 AM – 9 PM",
    "quality": 2,
    "popularity": 3,
    "rim": "Single",
    "net": "Nylon",
    "shortHoop": true,
    "accessibility": "Accessible.",
    "description": "Poor quality rims and unkept. Not recommended.",
    "inactive": false
  },
  {
    "name": "Temple Terrace Family Recreation Complex",
    "lat": 28.0480087033283,
    "lng": -82.3754527920173,
    "indoor": true,
    "fullCourts": 2,
    "halfCourts": 0,
    "lighting": true,
    "hours": "5 AM – 9 PM",
    "quality": 9,
    "popularity": 10,
    "rim": "Single",
    "net": "Nylon",
    "shortHoop": false,
    "accessibility": "Not easily accessible.",
    "description": "Costly membership required.",
    "inactive": false
  },
  {
    "name": "USF by Rec",
    "lat": 28.061584268099,
    "lng": -82.4066215424209,
    "description": "No longer basketball courts; torn down and turned into pickleball courts.",
    "inactive": true
  },
  {
    "name": "Temple Crest Center Courts",
    "lat": 28.0242304583154,
    "lng": -82.4185793798532,
    "indoor": false,
    "fullCourts": 2,
    "halfCourts": 0,
    "lighting": true,
    "hours": "Lights off 11pm.",
    "quality": 5,
    "popularity": 5,
    "rim": "Double",
    "net": "Nylon",
    "shortHoop": false,
    "inactive": false,
    "accessibility": "Accessible",
    "description": "Decent courts."
  },
  {
    "name": "Pepin Family Park",
    "lat": 28.0317095574198,
    "lng": -82.3702303312529,
    "indoor": false,
    "fullCourts": 0,
    "halfCourts": 2,
    "lighting": true,
    "hours": "Uncertain, around 9pm.",
    "quality": 6,
    "popularity": 5,
    "rim": "Double",
    "net": "Nylon",
    "shortHoop": false,
    "inactive": false,
    "accessibility": "Accessible",
    "description": "Canopy covering hoops, fairly maintained."
  },
  {
    "name": "Julian B. Lane Riverfront Park",
    "lat": 27.9551949159283,
    "lng": -82.4665762424193,
    "indoor": false,
    "fullCourts": 2,
    "halfCourts": 0,
    "lighting": true,
    "hours": "Lights off 11pm.",
    "quality": 8,
    "popularity": 10,
    "rim": "Single/Double",
    "net": "Nylon",
    "shortHoop": false,
    "inactive": false,
    "accessibility": "Accessible",
    "description": "Always good runs, fairly-kept, nice area."
  },
  {
    "name": "Jackson Springs Outdoor",
    "lat": 28.0035038151964,
    "lng": -82.5812338422013,
    "indoor": false,
    "fullCourts": 2,
    "halfCourts": 0,
    "lighting": true,
    "hours": "Lights off 11pm.",
    "quality": 7,
    "popularity": 9,
    "rim": "Double",
    "net": "Nylon or none",
    "shortHoop": false,
    "inactive": false,
    "accessibility": "Accessible",
    "description": "Fine-kept, good runs usually."
  },
  {
    "name": "Jackson Springs Indoor",
    "lat": 28.003310452565,
    "lng": -82.5805314782013,
    "indoor": true,
    "fullCourts": 1,
    "halfCourts": 4,
    "lighting": true,
    "hours": "MW 6pm-9pm",
    "quality": 9,
    "popularity": 8,
    "rim": "Single",
    "net": "Nylon",
    "shortHoop": true,
    "inactive": false,
    "accessibility": "Somewhat Accessible",
    "description": "Well-kept, rarely open and short hoop available upon request."
  },
  {
    "name": "Webb Courts",
    "lat": 28.0035840392485,
    "lng": -82.5594447949219,
    "indoor": false,
    "fullCourts": 2,
    "halfCourts": 0,
    "lighting": true,
    "hours": "Lights off 11pm.",
    "quality": 8,
    "popularity": 9,
    "rim": "Double",
    "net": "Nylon",
    "shortHoop": false,
    "inactive": false,
    "accessibility": "Accessible",
    "description": "better now after renovation, sometimes overcrowded by soccer players but good runs."
  },
  {
    "name": "Twelve Oaks",
    "lat": 28.0301637160497,
    "lng": -82.5514269063499,
    "indoor": false,
    "fullCourts": 1,
    "halfCourts": 0,
    "lighting": false,
    "hours": "N/A",
    "quality": 3,
    "popularity": 1,
    "rim": "Double",
    "net": "Nylon",
    "shortHoop": true,
    "inactive": false,
    "accessibility": "Accessible",
    "description": "Very niche, no reliable runs; good for small groups."
  },
  {
    "name": "Timberlane Park",
    "lat": 28.014722739278,
    "lng": -82.5975454714105,
    "indoor": false,
    "fullCourts": 2,
    "halfCourts": 0,
    "lighting": true,
    "hours": "Lights off 11pm.",
    "quality": 6,
    "popularity": 6,
    "rim": "Double",
    "net": "Nylon",
    "shortHoop": true,
    "inactive": false,
    "accessibility": "Accessible",
    "description": "Wider courts, ok condition, good runs when available."
  },
  {
    "name": "Orange Grove Court",
    "lat": 28.036677430320296,
    "lng": -82.48443936750161,
    "indoor": false,
    "fullCourts": 1,
    "halfCourts": 0,
    "lighting": true,
    "hours": "Uncertain",
    "quality": 5,
    "popularity": 4,
    "rim": "Double",
    "net": "Nylon",
    "shortHoop": false,
    "inactive": false,
    "accessibility": "Accessible",
    "description": "Small niche spot; single light makes night run not worthwhile."
  }
]
